City,Latitude,Longitude,Population
New York,40.7128,-74.0060,8419000
Los Angeles,34.0522,-118.2437,3980000
Chicago,41.8781,-87.6298,2716000
Houston,29.7604,-95.3698,2328000
Phoenix,33.4484,-112.0740,1690000

